Name,Address,Phone,Website,Rating,PriceLevel,Types,Hours,PlaceId,Latitude,Longitude
24 Hour Fitness,"1261 Soquel Ave, Santa Cruz, CA 95062, USA",(831) 454-0333,https://www.24hourfitness.com/gyms/santa-cruz-ca/santa-cruz-super-sport?Adb_id=GGL_LOC_ACQ_CDP,4.1,,establishment; gym; health; point_of_interest; spa,Monday: 5:00 AM – 10:00 PM; Tuesday: 5:00 AM – 10:00 PM; Wednesday: 5:00 AM – 10:00 PM; Thursday: 5:00 AM – 10:00 PM; Friday: 5:00 AM – 8:00 PM; Saturday: 8:00 AM – 8:00 PM; Sunday: 8:00 AM – 8:00 PM,ChIJpRpj8RtAjoARS3xmoDE12jk,36.9809013,-122.0090647
Pacific Edge Climbing Gym,"104 Bronson St #12, Santa Cruz, CA 95062, USA",(831) 454-9254,http://www.pacificedgeclimbinggym.com/,4.6,,establishment; gym; health; point_of_interest; store,Monday: 3:00 – 10:00 PM; Tuesday: 6:00 AM – 10:00 PM; Wednesday: 6:00 AM – 10:00 PM; Thursday: 6:00 AM – 10:00 PM; Friday: 6:00 AM – 10:00 PM; Saturday: 9:00 AM – 9:00 PM; Sunday: 9:00 AM – 9:00 PM,ChIJN8otGaVqjoAR7ylxXTPACNI,36.9679701,-122.0066344
In-Shape Fitness,"1100 41st Ave, Capitola, CA 95010, USA",(831) 276-0153,https://www.inshape.com/gyms/capitola-california-95010?utm_source=G&utm_medium=Local&utm_campaign=Google-Local&utm_source=G&utm_medium=Local&utm_campaign=Google-Local,4.2,,establishment; gym; health; point_of_interest; spa,Monday: 4:00 AM – 11:00 PM; Tuesday: 4:00 AM – 11:00 PM; Wednesday: 4:00 AM – 11:00 PM; Thursday: 4:00 AM – 11:00 PM; Friday: 4:00 AM – 10:00 PM; Saturday: 6:00 AM – 8:00 PM; Sunday: 6:00 AM – 8:00 PM,ChIJu-hdYBMVjoAR7oLJ1WW_zB0,36.9685247,-121.9642857
Capitola Yoga,"620 El Salto Dr, Capitola, CA 95010, USA",(831) 464-1295,https://www.capitolayoga.com/,4.6,,establishment; gym; health; lodging; point_of_interest,Monday: 4:00 – 5:00 PM; Tuesday: Closed; Wednesday: 4:00 – 5:00 PM; Thursday: Closed; Friday: Closed; Saturday: 10:00 – 11:00 AM; Sunday: Closed,ChIJLxHPf58VjoAR4zD3kr1G3yk,36.97588869999999,-121.9444231
Yoga Center Santa Cruz,"1620 Seabright Ave, Santa Cruz, CA 95062, USA",,https://www.yogacentersantacruz.com/,5,,establishment; gym; health; point_of_interest,,ChIJv37_fidAjoARh27PTfQTiWs,36.9793419,-122.0095984
Synergy Dance + Fitness,"9055 Soquel Dr, Aptos, CA 95003, USA",(831) 661-0235,http://www.synergymoves.com/,4.9,,establishment; gym; health; point_of_interest; school,Monday: 9:00 AM – 7:30 PM; Tuesday: 9:00 AM – 7:30 PM; Wednesday: 9:00 AM – 7:30 PM; Thursday: 9:30 AM – 7:30 PM; Friday: 8:00 AM – 4:00 PM; Saturday: 9:00 AM – 12:00 PM; Sunday: 9:00 AM – 12:00 PM,ChIJx1-wSmMWjoARahaEo5XchQs,36.9764974,-121.8903024
Cabrillo Fitness Club,"6200 Soquel Dr, Aptos, CA 95003, USA",(831) 475-5979,https://www.toadalfitness.com/cabrillo-fitness,4.6,,establishment; gym; health; point_of_interest,Monday: 6:00 AM – 9:00 PM; Tuesday: 6:00 AM – 9:00 PM; Wednesday: 6:00 AM – 9:00 PM; Thursday: 6:00 AM – 9:00 PM; Friday: 6:00 AM – 9:00 PM; Saturday: 8:00 AM – 6:00 PM; Sunday: 8:00 AM – 6:00 PM,ChIJa1q1L44VjoARvSSsLy9VVMw,36.9893725,-121.9327302
Breathe Deeply Pilates,"9515 Soquel Dr #102, Aptos, CA 95003, USA",(831) 688-1237,http://www.breathedeeplypilates.com/,5,,establishment; gym; health; point_of_interest,Monday: 7:00 AM – 8:00 PM; Tuesday: 7:00 AM – 8:00 PM; Wednesday: 7:00 AM – 8:00 PM; Thursday: 7:00 AM – 8:00 PM; Friday: 7:00 AM – 8:00 PM; Saturday: 6:00 AM – 8:00 PM; Sunday: 6:00 AM – 8:00 PM,ChIJC8iojGEWjoARs0_UG8fN508,36.9754865,-121.8845306
La Madrona Athletic Club,"1897 La Madrona Dr, Santa Cruz, CA 95060, USA",(831) 438-1072,https://lmac.caclubs.com/,4.8,,establishment; gym; health; point_of_interest,Monday: 6:00 AM – 9:00 PM; Tuesday: 6:00 AM – 9:00 PM; Wednesday: 6:00 AM – 9:00 PM; Thursday: 6:00 AM – 9:00 PM; Friday: 6:00 AM – 9:00 PM; Saturday: 7:00 AM – 8:00 PM; Sunday: 7:00 AM – 8:00 PM,ChIJtcf5o-VAjoARlSrgj1N-pG8,37.02082800000001,-122.02868
Agile Monkey Movement Lab,"303 Potrero St Suite 47-103, Santa Cruz, CA 95060, USA",,http://www.agilemonkey.net/,4.7,,establishment; gym; health; point_of_interest,,ChIJ17qMLCZAjoARR8xuUc-0YTc,36.9806384,-122.0315029
Santa Cruz Beach Yoga,"514 Cliff St, Santa Cruz, CA 95060, USA",(310) 699-3018,,,,establishment; gym; health; point_of_interest,Monday: 9:00 AM – 8:00 PM; Tuesday: 9:00 AM – 8:00 PM; Wednesday: 9:00 AM – 8:00 PM; Thursday: 9:00 AM – 8:00 PM; Friday: 8:30 AM – 7:00 PM; Saturday: 8:30 AM – 4:00 PM; Sunday: 8:30 AM – 12:00 PM,ChIJsfk6B5xqjoARV4n8UaoMEcc,36.9676904,-122.0215007
Source Wellness,"740 Front St # 250, Santa Cruz, CA 95060, USA",(831) 566-8973,,,,establishment; gym; health; point_of_interest,,ChIJdWCRcyZAjoARN5NTeUaeqQE,36.9753062,-122.0252531
SOL Santa Cruz,"1510 Seabright Ave, Santa Cruz, CA 95062, USA",(831) 425-3588,https://solsantacruz.net/,4.8,,establishment; gym; health; physiotherapist; point_of_interest,Monday: 8:00 AM – 5:00 PM; Tuesday: 8:00 AM – 6:00 PM; Wednesday: 8:00 AM – 5:00 PM; Thursday: 8:00 AM – 5:00 PM; Friday: 8:00 AM – 12:30 PM; Saturday: Closed; Sunday: Closed,ChIJzWa_0h1AjoARrNgNErubZ0U,36.9780005,-122.009378
Holistic Women's Wellness,"5905 Soquel Dr #200, Soquel, CA 95073, USA",(831) 419-7552,http://www.holisticwomenswellness.com/,5,,establishment; gym; health; point_of_interest,Monday: 11:00 AM – 7:00 PM; Tuesday: 11:00 AM – 7:00 PM; Wednesday: 11:00 AM – 7:00 PM; Thursday: 11:00 AM – 7:00 PM; Friday: 11:00 AM – 7:00 PM; Saturday: Closed; Sunday: 11:00 AM – 6:00 PM,ChIJz2HdO5AVjoAR2BNIW9wtysI,36.9889399,-121.9368749
Body & Soul - A Salon For The Healing Arts,"738 Chestnut St, Santa Cruz, CA 95060, USA",(831) 459-8613,,5,,establishment; gym; health; physiotherapist; point_of_interest,,ChIJne8OGy9AjoAReoFVVZk9GYI,36.9760365,-122.0293825
Coastline Pilates,"406 Mission St # B, Santa Cruz, CA 95060, USA",(831) 281-4058,http://www.coastlinepilates.com/,5,,establishment; gym; health; point_of_interest,,ChIJV_dL0S1AjoARbFiI-vWklIE,36.9761374,-122.0330142
Holy Cross School Gym,"170 High St, Santa Cruz, CA 95060, USA",(831) 469-3560,http://www.holycsc.org/,4.2,,establishment; gym; health; point_of_interest,Monday: 8:00 AM – 4:00 PM; Tuesday: 8:00 AM – 4:00 PM; Wednesday: 8:00 AM – 4:00 PM; Thursday: 8:00 AM – 4:00 PM; Friday: 8:00 AM – 4:00 PM; Saturday: Closed; Sunday: Closed,ChIJ8ZY03jFAjoARLYegC71up90,36.9788848,-122.0311107
Curves,"223 River St, Santa Cruz, CA 95060, USA",(831) 465-8228,https://www.curves.com/?utm_source=google&utm_medium=organic&utm_campaign=gmb-santa-cruz-ca,5,,establishment; gym; health; point_of_interest,"Monday: 6:30 AM – 1:00 PM, 4:00 – 6:00 PM; Tuesday: Closed; Wednesday: 6:30 AM – 1:00 PM, 4:00 – 6:00 PM; Thursday: 4:00 – 6:00 PM; Friday: 6:30 AM – 1:00 PM; Saturday: Closed; Sunday: Closed",ChIJr6Fziy9AjoARTO3ysO3tJeU,36.97903400000001,-122.0277557
Mavericks Fitness,"311 Soquel Ave, Santa Cruz, CA 95062, USA",(831) 854-7710,https://mavfit.com/,4.9,,establishment; gym; health; point_of_interest,Monday: 6:00 AM – 8:00 PM; Tuesday: 6:00 AM – 8:00 PM; Wednesday: 6:00 AM – 8:00 PM; Thursday: 6:00 AM – 8:00 PM; Friday: 6:00 AM – 8:00 PM; Saturday: 8:00 AM – 4:00 PM; Sunday: 8:00 AM – 2:00 PM,ChIJAekvsH1qjoARehHVTykBP7U,36.9742313,-122.0211597
BodyFit Santa Cruz,"546 Palm St, Santa Cruz, CA 95060, USA",(831) 465-4728,http://www.bodyfitsantacruz.com/,5,,establishment; gym; health; point_of_interest,Monday: 5:30 AM – 7:00 PM; Tuesday: 5:30 AM – 7:00 PM; Wednesday: 5:30 AM – 7:00 PM; Thursday: 5:30 AM – 7:00 PM; Friday: 5:30 AM – 7:00 PM; Saturday: 7:00 – 10:30 AM; Sunday: Closed,ChIJT-mUCH9qjoARIyThdm7jFMw,36.9642411,-122.0413787
Chaminade Resort & Spa,"1 Chaminade Ln, Santa Cruz, CA 95065, USA",(831) 475-5600,https://www.chaminade.com/?utm_source=google&utm_medium=organic&utm_campaign=gmb,4.1,,bar; establishment; food; lodging; point_of_interest; restaurant; spa,Monday: Open 24 hours; Tuesday: Open 24 hours; Wednesday: Open 24 hours; Thursday: Open 24 hours; Friday: Open 24 hours; Saturday: Open 24 hours; Sunday: Open 24 hours,ChIJecF-z_M_joARyM0lBOpyYJw,36.9964287,-121.985197
April Rose Skin Care,"555 Soquel Ave #360, Santa Cruz, CA 95062, USA",(831) 818-9268,https://www.aprilroseskincare.biz/,4.8,,establishment; health; point_of_interest; spa,Monday: 10:00 AM – 6:00 PM; Tuesday: 10:00 AM – 6:00 PM; Wednesday: 10:00 AM – 6:00 PM; Thursday: 10:00 AM – 6:00 PM; Friday: 10:00 AM – 6:00 PM; Saturday: Closed; Sunday: Closed,ChIJcW29vCFAjoARgM4smEZxeQ4,36.9764734,-122.0174416
Center for Health,"555 Soquel Ave, Santa Cruz, CA 95062, USA",(831) 457-0904,http://www.centerforhealthsc.com/,4.7,,establishment; health; point_of_interest; spa,,ChIJ1ZcyuiFAjoARh64enRDo8n8,36.9764652,-122.0174072
RSMD Medical Aesthetics (by Rebecca Small MD),"828 Bay Ave, Capitola, CA 95010, USA",(831) 475-1077,https://rsmdmedspa.com/,4.9,,beauty_salon; establishment; hair_care; health; point_of_interest; spa; store,Monday: 9:00 AM – 5:00 PM; Tuesday: 9:00 AM – 5:00 PM; Wednesday: 9:00 AM – 5:00 PM; Thursday: 9:00 AM – 5:00 PM; Friday: 9:00 AM – 5:00 PM; Saturday: Closed; Sunday: Closed,ChIJlzldh3AVjoARy3mS5WSfNtU,36.9820003,-121.9559764
Tea House Spa,"112 Elm St, Santa Cruz, CA 95060, USA",(831) 426-9700,https://www.teahousespa.com/book-now,4.5,,establishment; point_of_interest; spa,Monday: 10:00 AM – 10:00 PM; Tuesday: 12:30 – 7:00 PM; Wednesday: 12:30 – 7:00 PM; Thursday: 10:00 AM – 10:00 PM; Friday: 10:00 AM – 10:00 PM; Saturday: 10:00 AM – 10:00 PM; Sunday: 10:00 AM – 10:00 PM,ChIJRXVj8SdAjoAR3Tld2qOa-2s,36.9710015,-122.025803
Well Within Spa,"417 Cedar St, Santa Cruz, CA 95060, USA",(831) 458-9355,http://www.wellwithinspa.com/,4.7,,beauty_salon; establishment; point_of_interest; spa,Monday: 10:00 AM – 11:00 PM; Tuesday: 10:00 AM – 11:00 PM; Wednesday: 10:00 AM – 11:00 PM; Thursday: 10:00 AM – 11:00 PM; Friday: 10:00 AM – 11:00 PM; Saturday: 10:00 AM – 11:00 PM; Sunday: 10:00 AM – 11:00 PM,ChIJPxMs_idAjoAR_Cq2WqMMcsc,36.9705252,-122.0269068
Body Resultz Skin Care,"1001 Center St #3, Santa Cruz, CA 95060, USA",(831) 320-6663,http://www.bodyresultz.com/,4.7,,beauty_salon; establishment; hair_care; health; point_of_interest; spa,Monday: 11:00 AM – 4:00 PM; Tuesday: 11:00 AM – 4:00 PM; Wednesday: 11:00 AM – 4:00 PM; Thursday: 11:00 AM – 4:00 PM; Friday: 11:00 AM – 4:00 PM; Saturday: 11:00 AM – 3:30 PM; Sunday: 11:00 AM – 3:00 PM,ChIJ0SbIFy9AjoAR6PzLvwkC5gQ,36.976062,-122.0289976
"Elizabeth Van Buren, Inc.","303 Potrero St Unit 7, Santa Cruz, CA 95060, USA",(831) 425-8218,http://elizabethvanburen.com/,5,,beauty_salon; establishment; health; point_of_interest; spa; store,Monday: 10:00 AM – 4:00 AM; Tuesday: 10:00 AM – 4:00 AM; Wednesday: 10:00 AM – 4:00 AM; Thursday: 10:00 AM – 4:00 AM; Friday: Closed; Saturday: Closed; Sunday: Closed,ChIJ9dcKazFAjoARxgZLTLP7FVs,36.9820198,-122.0313483
Essentia Body Therapy,"556 Ocean View Ave, Santa Cruz, CA 95062, USA",(831) 454-8312,http://www.essentiabodytherapy.com/,4.9,,clothing_store; establishment; health; point_of_interest; spa; store,Monday: Closed; Tuesday: 11:00 AM – 6:00 PM; Wednesday: 11:00 AM – 6:00 PM; Thursday: 9:00 AM – 9:00 PM; Friday: 9:00 AM – 9:00 PM; Saturday: 9:00 AM – 9:00 PM; Sunday: 11:00 AM – 6:00 PM,ChIJ_yEGoR9AjoARKzz8zTYWbzk,36.976252,-122.016555
Tranquille Spa,"3233 Valencia Ave B6, Aptos, CA 95003, USA",(831) 688-7750,https://go.booker.com/location/tranquillespa/service-menu,4.5,,beauty_salon; establishment; hair_care; point_of_interest; spa,Monday: 10:00 AM – 7:00 PM; Tuesday: 10:00 AM – 7:00 PM; Wednesday: 10:00 AM – 7:00 PM; Thursday: 10:00 AM – 7:00 PM; Friday: 10:00 AM – 7:00 PM; Saturday: 10:00 AM – 5:00 PM; Sunday: 10:00 AM – 5:00 PM,ChIJ-emgW9AVjoARFP3GQ9xrjCA,36.9772129,-121.8864564
MonaVie,"750 Valencia Rd, Aptos, CA 95003, USA",(831) 688-8118,,,,establishment; food; health; point_of_interest; spa; store,,ChIJqer3-mYWjoAR1vY101taKws,36.98176400000001,-121.88246
Santa Cruz Thread,"1010 Fair Ave suite a, Santa Cruz, CA 95060, USA",(831) 430-8188,http://www.santacruzthread.com/,4.6,,beauty_salon; establishment; hair_care; health; point_of_interest; spa,Monday: 8:30 AM – 8:00 PM; Tuesday: 8:30 AM – 8:00 PM; Wednesday: 8:30 AM – 8:00 PM; Thursday: 8:30 AM – 8:00 PM; Friday: 8:30 AM – 8:00 PM; Saturday: 8:30 AM – 8:00 PM; Sunday: 8:30 AM – 8:00 PM,ChIJcQhyTiZAjoAR4uR34Uox1oc,36.95899620000001,-122.0453145
Yoso Wellness Spa,"740 Front St #110, Santa Cruz, CA 95060, USA",(831) 600-8053,https://www.yosowellness.com/,4.8,,beauty_salon; establishment; hair_care; health; point_of_interest; spa,Monday: 9:30 AM – 5:00 PM; Tuesday: 9:30 AM – 7:00 PM; Wednesday: 9:30 AM – 7:00 PM; Thursday: 9:30 AM – 7:00 PM; Friday: 9:30 AM – 5:00 PM; Saturday: 9:30 AM – 5:00 PM; Sunday: Closed,ChIJieYAKDdAjoARxUMZa9OubFQ,36.97533110000001,-122.0251066
Astounding Results,"720 Capitola Ave #D, Capitola, CA 95010, USA",(831) 706-1107,http://www.astoundingresults.net/,,,beauty_salon; establishment; point_of_interest; spa,Monday: 8:30 AM – 8:30 PM; Tuesday: 8:30 AM – 8:30 PM; Wednesday: 8:30 AM – 8:30 PM; Thursday: 8:30 AM – 8:30 PM; Friday: 8:30 AM – 8:30 PM; Saturday: 10:00 AM – 3:00 PM; Sunday: Closed,ChIJ28sv1HYVjoARHd81hB_wmDs,36.9804582,-121.9525041
A Room of Her Own,"720 Capitola Ave #D, Capitola, CA 95010, USA",(831) 687-0591,https://www.aroomofherown.com/,5,,beauty_salon; establishment; point_of_interest; spa,,ChIJT-FWTWIWjoARmhx7zPnh4DQ,36.9804602,-121.9524881
BellaDawna Esthetics Artistry & Care,"4839 Soquel Dr, Soquel, CA 95073, USA",(831) 688-3203,http://www.belladawnaesthetics.com/,4.8,,establishment; point_of_interest; spa,Monday: Closed; Tuesday: 10:00 AM – 6:00 PM; Wednesday: 11:00 AM – 7:00 PM; Thursday: 10:00 AM – 6:00 PM; Friday: 10:00 AM – 6:00 PM; Saturday: 10:00 AM – 6:00 PM; Sunday: Closed,ChIJe9mCeNwVjoARiHJDAnM1S5I,36.98882650000001,-121.9552365
Divine Skin Etc,"2602 Portola Dr, Santa Cruz, CA 95062, USA",(831) 234-9168,http://divineskinetc.com/,5,,beauty_salon; establishment; hair_care; health; point_of_interest; spa,Monday: 10:00 AM – 6:00 PM; Tuesday: Closed; Wednesday: 10:00 AM – 7:00 PM; Thursday: 10:00 AM – 7:00 PM; Friday: 10:00 AM – 5:00 PM; Saturday: 10:00 AM – 5:00 PM; Sunday: 10:00 AM – 5:00 PM,ChIJjQhTxD4VjoARw9rlVm93ZrI,36.9630448,-121.9754131
Lotus Holistic Health Institute,"4245 Capitola Rd STE 103, Capitola, CA 95010, USA",(831) 566-0735,http://www.lotusayurveda.com/,5,,establishment; health; point_of_interest; spa,Monday: 9:00 AM – 5:00 PM; Tuesday: 9:00 AM – 5:00 PM; Wednesday: 9:00 AM – 5:00 PM; Thursday: 9:00 AM – 5:00 PM; Friday: 9:00 AM – 5:00 PM; Saturday: Closed; Sunday: Closed,ChIJ1dToSGwVjoARtVKkX6ddqdk,36.974013,-121.962233
Pacific Coast Manor,"1935 Wharf Rd, Capitola, CA 95010, USA",(831) 476-0770,http://www.paccoastmanor.com/,4.2,,establishment; health; physiotherapist; point_of_interest,Monday: 9:00 AM – 5:00 PM; Tuesday: 9:00 AM – 5:00 PM; Wednesday: 9:00 AM – 5:00 PM; Thursday: 9:00 AM – 5:00 PM; Friday: 9:00 AM – 5:00 PM; Saturday: 9:00 AM – 5:00 PM; Sunday: 9:00 AM – 5:00 PM,ChIJ1Rxz7XEVjoARM9UZVWx0b6c,36.97738359999999,-121.957923
Kihorany Gaye,"2025 Soquel Ave, Santa Cruz, CA 95062, USA",(831) 423-4111,http://www.pamf.org/,,,establishment; health; physiotherapist; point_of_interest,,ChIJ03I5ZgFAjoARfqdWYh1HJ_o,36.9822811,-121.9977404
Quinn Stella,"2025 Soquel Ave, Santa Cruz, CA 95062, USA",(831) 423-4111,http://www.pamf.org/,,,establishment; health; physiotherapist; point_of_interest,,ChIJ03I5ZgFAjoARiDfRv8Wmm9o,36.9822811,-121.9977404
Gonzales David,"2025 Soquel Ave, Santa Cruz, CA 95062, USA",(831) 423-4111,http://www.pamf.org/,,,establishment; health; physiotherapist; point_of_interest,,ChIJ03I5ZgFAjoAR9-XDu1qtK74,36.9822811,-121.9977404
Radcliffe Judith,"2025 Soquel Ave, Santa Cruz, CA 95062, USA",(831) 423-4111,http://www.pamf.org/,,,establishment; health; physiotherapist; point_of_interest,,ChIJ03I5ZgFAjoAR4_-sAoPmpbA,36.9822811,-121.9977404
Surber Mark,"2025 Soquel Ave, Santa Cruz, CA 95062, USA",(831) 423-4111,http://www.pamf.org/,,,establishment; health; physiotherapist; point_of_interest,,ChIJ03I5ZgFAjoAR2XUbAvD0Hzo,36.9822811,-121.9977404
Precision Physical Therapy & Fitness Santa Cruz,"8030 Soquel Ave #200, Santa Cruz, CA 95062, USA",(831) 464-8200,http://www.prefitpt.com/,4.7,,establishment; health; physiotherapist; point_of_interest,Monday: 7:30 AM – 6:30 PM; Tuesday: 7:30 AM – 6:30 PM; Wednesday: 7:30 AM – 6:30 PM; Thursday: 7:30 AM – 6:30 PM; Friday: 7:30 AM – 6:30 PM; Saturday: Closed; Sunday: Closed,ChIJMzaT72YVjoAR7LGw7yw93SM,36.9820866,-121.9669302
Lifesport Medicine & Wellness,"1260 41st Ave STE N, Capitola, CA 95010, USA",(831) 462-5000,,5,,doctor; establishment; health; physiotherapist; point_of_interest,,ChIJXc2gVmsVjoARFuXqk0-eHZ8,36.97007869999999,-121.9645929
"Charles Verutti, PT","1529 Seabright Ave, Santa Cruz, CA 95062, USA",(831) 458-6230,http://www.pamf.org/charles-verutti.html?utm_medium=local&utm_source=google_plus-local&utm_campaign=local-santa-cruz-pamfd1254,5,,establishment; health; physiotherapist; point_of_interest,Monday: 7:00 AM – 6:30 PM; Tuesday: 7:00 AM – 6:30 PM; Wednesday: 7:00 AM – 6:30 PM; Thursday: 7:00 AM – 6:30 PM; Friday: 7:00 AM – 6:30 PM; Saturday: 8:00 AM – 12:00 PM; Sunday: Closed,ChIJK2yHmR5AjoARNKONbQnUeys,36.9784533,-122.0105752
Reber Physical Therapy,"7887 Soquel Dr STE D, Aptos, CA 95003, USA",(831) 688-6355,,,,establishment; health; physiotherapist; point_of_interest,,ChIJ94XY59kVjoAR_8i4fz8uKxs,36.9782505,-121.9063241
Seascape Physical Therapy,"Fitness, 15 Seascape Village, Aptos, CA 95003, USA",(831) 687-0985,,,,establishment; health; physiotherapist; point_of_interest,,ChIJk2NOrMAWjoARdz7rpjwHPmk,36.9523131,-121.8772546
Santa Cruz Physical Therapy,"1529 Seabright Ave, Santa Cruz, CA 95062, USA",(831) 458-6230,https://www.sutterhealth.org/find-location/facility/santa-cruz-physical-therapy-1043246788,2.9,,establishment; health; physiotherapist; point_of_interest,Monday: 7:00 AM – 6:00 PM; Tuesday: 7:00 AM – 6:30 PM; Wednesday: 7:00 AM – 6:00 PM; Thursday: 7:00 AM – 6:30 PM; Friday: 7:00 AM – 5:30 PM; Saturday: 8:00 AM – 12:00 PM; Sunday: Closed,ChIJK2yHmR5AjoARTnEtIpvydSc,36.9785156,-122.0105972
Turner Cherie,"1529 Seabright Ave, Santa Cruz, CA 95062, USA",(831) 458-6230,http://www.pamf.org/,,,establishment; health; physiotherapist; point_of_interest,,ChIJK2yHmR5AjoARostRrSPvK_c,36.97844259999999,-122.0105689
Arnold Jane,"1529 Seabright Ave, Santa Cruz, CA 95062, USA",(831) 458-6230,http://www.pamf.org/,,,establishment; health; physiotherapist; point_of_interest,,ChIJK2yHmR5AjoARPhWsvGCIwgc,36.97844259999999,-122.0105689
"Christopher Vafiades, PT, MS, ATC","1200 41st Ave Suite H, Capitola, CA 95010, USA",(831) 346-6886,http://fyzical.com/santa-cruz,,,establishment; health; physiotherapist; point_of_interest,Monday: 8:00 AM – 7:00 PM; Tuesday: 8:00 AM – 6:00 PM; Wednesday: 8:00 AM – 7:00 PM; Thursday: 8:00 AM – 6:00 PM; Friday: 8:00 AM – 6:00 PM; Saturday: Closed; Sunday: Closed,ChIJ7QhlMwNAjoARIrYRj8gTIy8,36.9689799,-121.9641524
Alliance Physical Therapy,"7887 Soquel Dr ste d&e, Aptos, CA 95003, USA",(831) 662-4547,https://www.allianceptsantacruz.com/,4.4,,establishment; health; physiotherapist; point_of_interest,Monday: 7:00 AM – 6:00 PM; Tuesday: 7:00 AM – 6:00 PM; Wednesday: 7:00 AM – 6:00 PM; Thursday: 7:00 AM – 6:00 PM; Friday: 7:00 AM – 6:00 PM; Saturday: Closed; Sunday: Closed,ChIJdzrK6NkVjoAR2wcTnviJ3fg,36.97811849999999,-121.9062729
Pacific Pilates and Physical Therapy,"9099 Soquel Dr, Aptos, CA 95003, USA",(831) 331-1731,https://www.pacificpilatesnow.com/,,,establishment; health; physiotherapist; point_of_interest,,ChIJfaQGT2IWjoAR2d4VBXhCh9I,36.9756904,-121.8866878
"Eric Ingram, RPT","1003 River St # C, Santa Cruz, CA 95060, USA",(831) 457-1800,,,,establishment; health; physiotherapist; point_of_interest,,ChIJYbSdUTZAjoARP0srpwSck8M,36.9868665,-122.0305815
Santa Cruz,"Santa Cruz, CA, USA",,http://www.ci.santa-cruz.ca.us/,,,locality; political,,ChIJSdU2fBtEjoARhfnXKksQylI,36.9741275,-122.028807
Best Western Plus All Suites Inn,"500 Ocean St, Santa Cruz, CA 95060, USA",(831) 458-9898,https://www.bestwestern.com/en_US/book/hotel-rooms.05480.html?iata=00171880&ssob=BLBWI0004G&cid=BLBWI0004G:google:gmb:05480,3.9,,establishment; lodging; point_of_interest,,ChIJe1T8_iBAjoARiwVqotDfaxs,36.9750561,-122.0186158
"Holiday Inn Express & Suites Santa Cruz, an IHG Hotel","1410 Ocean St, Santa Cruz, CA 95060, USA",(831) 466-9100,https://www.ihg.com/holidayinnexpress/hotels/us/en/santa-cruz/srues/hoteldetail?cm_mmc=GoogleMaps-_-EX-_-US-_-SRUES,3.9,,establishment; lodging; point_of_interest,,ChIJV0XGoztAjoARgdCWDHKf6Fk,36.984289,-122.022732
Dream Inn,"175 W Cliff Dr, Santa Cruz, CA 95060, USA",(831) 740-8069,https://www.dreaminnsantacruz.com/?utm_source=google&utm_medium=bizlisting&utm_campaign=google_places,4.5,,establishment; lodging; point_of_interest,Monday: Open 24 hours; Tuesday: Open 24 hours; Wednesday: Open 24 hours; Thursday: Open 24 hours; Friday: Open 24 hours; Saturday: Open 24 hours; Sunday: Open 24 hours,ChIJxUvnoZpqjoARC4a1tZxLlDg,36.9618583,-122.0250944
Hilton Santa Cruz/Scotts Valley,"6001 La Madrona Dr, Santa Cruz, CA 95060, USA",(831) 440-1000,https://www.hilton.com/en/hotels/sjcsvhf-hilton-santa-cruz-scotts-valley/?SEO_id=GMB-AMER-HH-SJCSVHF&y_source=1_MTIyMDkzOS03MTUtbG9jYXRpb24ud2Vic2l0ZQ%3D%3D,4,,establishment; lodging; point_of_interest,,ChIJ7R_R7cRAjoARjqdSicWiBpM,37.03587539999999,-122.0243043
Ocean Pacific Lodge,"301 Pacific Ave, Santa Cruz, CA 95060, USA",(831) 457-1234,https://www.theoceanpacificlodge.com/,4.2,,establishment; lodging; point_of_interest,Monday: Open 24 hours; Tuesday: Open 24 hours; Wednesday: Open 24 hours; Thursday: Open 24 hours; Friday: Open 24 hours; Saturday: Open 24 hours; Sunday: Open 24 hours,ChIJdTxnRZtqjoARcFcDCOB43NM,36.96570579999999,-122.02639
Howard Johnson by Wyndham Santa Cruz,"130 W Cliff Dr, Santa Cruz, CA 95060, USA",(831) 291-3054,https://www.wyndhamhotels.com/hojo/santa-cruz-california/howard-johnson-inn-santa-cruz/overview?CID=LC:q68ryvg9cq3avi8:2528&iata=00093796,3.4,,establishment; lodging; point_of_interest,Monday: Open 24 hours; Tuesday: Open 24 hours; Wednesday: Open 24 hours; Thursday: Open 24 hours; Friday: Open 24 hours; Saturday: Open 24 hours; Sunday: Open 24 hours,ChIJCfvj4ZpqjoARGvNVNc8ivys,36.9635524,-122.0252265
Seascape Resort,"1 Seascape Resort Dr, Aptos, CA 95003, USA",(831) 688-6800,https://www.seascaperesort.com/?utm_medium=organic&utm_source=google&utm_campaign=business-listing,4.5,,establishment; lodging; point_of_interest,Monday: Open 24 hours; Tuesday: Open 24 hours; Wednesday: Open 24 hours; Thursday: Open 24 hours; Friday: Open 24 hours; Saturday: Open 24 hours; Sunday: Open 24 hours,ChIJNxjNL8cWjoAR_FK3JukZwZU,36.9503797,-121.8769006
The Inn at Pasatiempo,"555 CA-17, Santa Cruz, CA 95060, USA",(831) 423-5000,https://www.innatpasatiempo.com/,4.2,,establishment; lodging; point_of_interest,Monday: Open 24 hours; Tuesday: Open 24 hours; Wednesday: Open 24 hours; Thursday: Open 24 hours; Friday: Open 24 hours; Saturday: Open 24 hours; Sunday: Open 24 hours,ChIJdeDXjURAjoARqWzzv-kWy7E,36.99932099999999,-122.022392
Pacific Blue Inn,"636 Pacific Ave, Santa Cruz, CA 95060, USA",(831) 600-8880,http://pacificblueinn.com/,4.4,,establishment; lodging; point_of_interest,,ChIJWfOT8JxqjoARP4CEf4mGjvM,36.9679705,-122.0244176
"Hotel Paradox, Autograph Collection","611 Ocean St, Santa Cruz, CA 95060, USA",(831) 425-7100,https://www.marriott.com/en-us/hotels/sjcak-hotel-paradox-autograph-collection/overview/?scid=f2ae0541-1279-4f24-b197-a979c79310b0,4.1,,establishment; lodging; point_of_interest,,ChIJU6nOWSFAjoARb_yNhpSsrQI,36.9768291,-122.0209158
Fairfield by Marriott Inn & Suites Santa Cruz - Capitola,"1255 41st Ave, Capitola, CA 95010, USA",(831) 427-2900,https://www.marriott.com/en-us/hotels/sjccp-fairfield-inn-and-suites-santa-cruz-capitola/overview/?scid=f2ae0541-1279-4f24-b197-a979c79310b0,4.4,,establishment; lodging; point_of_interest,,ChIJ7Zs3rRQVjoARxcX2cXp3n4Y,36.9699833,-121.9652915
The Aqua Pacific Hotel,"330 Ocean St, Santa Cruz, CA 95060, USA",(831) 425-3722,https://www.theaquapacifichotel.com/,3.2,,establishment; lodging; point_of_interest,Monday: Open 24 hours; Tuesday: Open 24 hours; Wednesday: Open 24 hours; Thursday: Open 24 hours; Friday: Open 24 hours; Saturday: Open 24 hours; Sunday: Open 24 hours,ChIJc2_pwJ9qjoAR4oxrTEwneac,36.97210330000001,-122.017429
Seaway Inn,"176 W Cliff Dr, Santa Cruz, CA 95060, USA",(831) 471-9004,http://www.seawayinn.com/,4.3,,establishment; lodging; point_of_interest,Monday: 8:00 AM – 12:00 AM; Tuesday: 8:00 AM – 12:00 AM; Wednesday: 8:00 AM – 12:00 AM; Thursday: 8:00 AM – 12:00 AM; Friday: Open 24 hours; Saturday: Open 24 hours; Sunday: 8:00 AM – 12:00 AM,ChIJs9mMv5pqjoARC2W1YvXx2lk,36.96218140000001,-122.0254722
Hotel Solares,"600 Riverside Ave, Santa Cruz, CA 95060, USA",(831) 458-9660,https://www.hotelsolares.com/,3.3,,establishment; lodging; point_of_interest,Monday: Open 24 hours; Tuesday: Open 24 hours; Wednesday: Open 24 hours; Thursday: Open 24 hours; Friday: Open 24 hours; Saturday: Open 24 hours; Sunday: Open 24 hours,ChIJc9w-9J5qjoARiLBrobcokTE,36.9702182,-122.0201611
Motel Santa Cruz,"370 Ocean St, Santa Cruz, CA 95060, USA",(831) 458-9220,http://motelsantacruz.travel/,2.7,,establishment; lodging; point_of_interest,Monday: Open 24 hours; Tuesday: Open 24 hours; Wednesday: Open 24 hours; Thursday: Open 24 hours; Friday: Open 24 hours; Saturday: Open 24 hours; Sunday: Open 24 hours,ChIJratKeSBAjoARqbeNepuI4PQ,36.9732768,-122.0179536
Torch Lite Inn Santa Cruz CA Hotel,"500 Riverside Ave, Santa Cruz, CA 95060, USA",(831) 426-7575,,3.2,,establishment; lodging; point_of_interest,Monday: 8:00 AM – 7:00 AM; Tuesday: 8:00 AM – 7:00 AM; Wednesday: 8:00 AM – 7:00 AM; Thursday: 8:00 AM – 7:00 AM; Friday: 8:00 AM – 7:00 AM; Saturday: 8:00 AM – 7:00 AM; Sunday: 8:00 AM – 7:00 AM,ChIJe3Glwp5qjoARbbCbKeruvKE,36.9691657,-122.0188059
Rio Sands Hotel,"116 Aptos Beach Dr, Aptos, CA 95003, USA",(831) 688-3207,http://www.riosands.com/,4.1,,establishment; lodging; point_of_interest,Monday: Open 24 hours; Tuesday: Open 24 hours; Wednesday: Open 24 hours; Thursday: Open 24 hours; Friday: Open 24 hours; Saturday: Open 24 hours; Sunday: Open 24 hours,ChIJpdm7HtUVjoARYfqlK7Bl-DM,36.9695812,-121.9036695
Continental Inn,"414 Ocean St, Santa Cruz, CA 95060, USA",(831) 429-1221,https://www.continentalinnsantacruz.com/,4,,establishment; lodging; point_of_interest,Monday: Open 24 hours; Tuesday: Open 24 hours; Wednesday: Open 24 hours; Thursday: Open 24 hours; Friday: Open 24 hours; Saturday: Open 24 hours; Sunday: Open 24 hours,ChIJ0ywgYSBAjoARkPvPQlMEq38,36.9739928,-122.0183532
Live Oak,"Live Oak, CA, USA",,,,,locality; political,,ChIJDwDFblgVjoARQylfQi4dXG0,36.9835611,-121.9805165
Hot Yoga Toadal Fitness,"2931 Mission St, Santa Cruz, CA 95060, USA",(206) 734-7424,https://www.toadalfitness.com/hot-yoga,5,,establishment; gym; health; point_of_interest,Monday: 6:00 AM – 9:00 PM; Tuesday: 6:00 AM – 9:00 PM; Wednesday: 6:00 AM – 9:00 PM; Thursday: 6:00 AM – 9:00 PM; Friday: 6:00 AM – 8:00 PM; Saturday: 8:00 AM – 6:00 PM; Sunday: 8:00 AM – 6:00 PM,ChIJI5AIDRxrjoARe_M-_ibwcRk,36.9590669,-122.0586274
College 9/10 Namaste Lounge,"Namaste Lounge, 702 College Nine Rd, Santa Cruz, CA 95064, USA",,http://fitlife.ucsc.edu/,4.5,,establishment; gym; health; point_of_interest,Monday: 6:30 AM – 12:00 AM; Tuesday: 6:30 AM – 12:00 AM; Wednesday: 6:30 AM – 12:00 AM; Thursday: 6:30 AM – 12:00 AM; Friday: 6:30 AM – 12:00 AM; Saturday: 6:30 AM – 12:00 AM; Sunday: 6:30 AM – 12:00 AM,ChIJoy21bgpBjoARzXs90NT5c_A,37.0007655,-122.0572502
Pleasure Point Yoga,"3707 Portola Dr, Santa Cruz, CA 95062, USA",(831) 479-9642,https://www.pleasurepointsanctuary.com/,4.7,,establishment; gym; health; point_of_interest,Monday: 7:00 AM – 8:30 PM; Tuesday: 7:00 AM – 8:30 PM; Wednesday: 7:00 AM – 8:30 PM; Thursday: 7:00 AM – 8:30 PM; Friday: 7:00 AM – 8:30 PM; Saturday: 8:00 – 11:30 AM; Sunday: 8:00 – 11:30 AM,ChIJ2U2OcBYVjoARKjH_VAr3Ivs,36.9639507,-121.9680886
Hot Elevation Studios,"1440 41st Ave suite e, Capitola, CA 95010, USA",(831) 332-9543,https://hotelevationstudios.com/,4.3,,establishment; gym; health; point_of_interest,"Monday: 6:00 AM – 1:00 PM, 4:00 – 7:30 PM; Tuesday: 6:00 AM – 1:00 PM, 4:00 – 7:30 PM; Wednesday: 6:00 AM – 1:00 PM, 4:00 – 7:30 PM; Thursday: 6:00 AM – 1:00 PM, 4:00 – 7:30 PM; Friday: 6:00 AM – 1:00 PM, 4:00 – 6:15 PM; Saturday: 7:00 AM – 1:00 PM; Sunday: 8:00 AM – 1:00 PM, 4:00 – 6:30 PM",ChIJpbBhfWsVjoARQSJh4hY8noc,36.9717689,-121.964419
Hotsource Yoga,"7960 Soquel Dr, Aptos, CA 95003, USA",(831) 661-5030,https://hotsourceyogastudio.com/,5,,establishment; gym; health; point_of_interest,Monday: 9:00 AM – 8:00 PM; Tuesday: 5:45 AM – 9:00 PM; Wednesday: 5:30 AM – 9:00 PM; Thursday: 5:45 AM – 9:00 PM; Friday: 6:30 AM – 6:00 PM; Saturday: 7:30 AM – 6:00 PM; Sunday: 7:30 AM – 6:00 PM,ChIJ57DAatcVjoARNnvzln6dPP0,36.9763355,-121.9058675
Anahata Hot Yoga & Wellness Center,"6264 CA-9, Felton, CA 95018, USA",(831) 216-6423,https://www.anahatayoga.center/,5,,establishment; gym; health; point_of_interest,Monday: 6:15 AM – 8:00 PM; Tuesday: 8:45 AM – 8:30 PM; Wednesday: 6:15 AM – 8:00 PM; Thursday: 8:45 AM – 8:30 PM; Friday: 6:15 AM – 7:00 PM; Saturday: 7:45 AM – 7:00 PM; Sunday: 7:45 AM – 9:00 PM,ChIJV4IIkCtHjoARooQFtLUslFc,37.0524177,-122.0730227
Santa Cruz Yoga,"402 Ingalls St #11, Santa Cruz, CA 95060, USA",(831) 227-2215,http://www.santacruzyoga.net/,4.4,,establishment; gym; health; point_of_interest,Monday: 7:00 AM – 8:00 PM; Tuesday: 7:00 AM – 8:00 PM; Wednesday: 7:00 AM – 8:00 PM; Thursday: 7:00 AM – 8:00 PM; Friday: 7:00 AM – 8:00 PM; Saturday: 7:00 AM – 8:00 PM; Sunday: 7:00 AM – 8:00 PM,ChIJy_sYA3pqjoARKmclf-hzTJk,36.9590032,-122.0486892
Toadal Fitness West Side,"2929 Mission St, Santa Cruz, CA 95060, USA",(831) 466-3764,http://www.toadalfitness.com/,4.5,,establishment; gym; health; point_of_interest,Monday: 6:00 AM – 9:00 PM; Tuesday: 6:00 AM – 9:00 PM; Wednesday: 6:00 AM – 9:00 PM; Thursday: 6:00 AM – 9:00 PM; Friday: 6:00 AM – 8:00 PM; Saturday: 8:00 AM – 6:00 PM; Sunday: 8:00 AM – 6:00 PM,ChIJ6ceLYHVqjoARAD46UVM8rRw,36.9592746,-122.0583741
Village Yoga Santa Cruz,"718 Soquel Ave, Santa Cruz, CA 95062, USA",(831) 400-6362,http://www.villageyogasantacruz.com/,4.8,,establishment; gym; health; point_of_interest,Monday: 6:00 AM – 9:00 PM; Tuesday: 6:00 AM – 9:00 PM; Wednesday: 6:00 AM – 9:00 PM; Thursday: 6:00 AM – 9:00 PM; Friday: 6:00 AM – 7:30 PM; Saturday: 8:00 AM – 5:30 PM; Sunday: 8:00 AM – 5:30 PM,ChIJ3YpSlSdAjoAR-AJqaAJVJ7I,36.9770438,-122.0151531
Sol Hot Yoga,"230 Mt Hermon Rd D, Scotts Valley, CA 95066, USA",(831) 515-7000,http://solhotyogasv.com/,5,,establishment; gym; health; point_of_interest,"Monday: 7:30 AM – 12:45 PM, 4:00 – 8:30 PM; Tuesday: 7:30 AM – 1:00 PM, 4:00 – 8:30 PM; Wednesday: 7:30 AM – 12:45 PM, 4:00 – 8:30 PM; Thursday: 9:00 AM – 1:00 PM, 4:00 – 7:15 PM; Friday: 7:30 AM – 1:00 PM, 5:00 – 6:00 PM; Saturday: 7:00 AM – 1:00 PM; Sunday: 9:00 AM – 1:00 PM, 4:00 – 6:15 PM",ChIJM-z02btHjoARMwOqVO7g1Pk,37.0484837,-122.0262518
Santa Cruz Athletic Club,"901 Soquel Ave, Santa Cruz, CA 95062, USA",(831) 425-4653,http://www.santacruzathleticclub.com/,4.8,,establishment; gym; health; point_of_interest,Monday: 4:00 AM – 11:00 PM; Tuesday: 4:00 AM – 11:00 PM; Wednesday: 4:00 AM – 11:00 PM; Thursday: 4:00 AM – 11:00 PM; Friday: 5:00 AM – 10:00 PM; Saturday: 6:00 AM – 8:00 PM; Sunday: 6:00 AM – 8:00 PM,ChIJ9S8eMidBjoARXLtpY22if_U,36.9784388,-122.0147497
Bhakti Santa Cruz,"513 Soquel Ave, Santa Cruz, CA 95062, USA",(650) 772-8226,https://bhaktisantacruz.com/,5,,establishment; gym; health; point_of_interest,,ChIJOUqacepBjoAR41Xp_0fSusQ,36.9757219,-122.0179232
Santa Cruz Movement,"730 Soquel Ave, Santa Cruz, CA 95062, USA",(831) 332-5883,https://www.santacruzmovement.com/,4.9,,establishment; gym; health; point_of_interest,Monday: 6:00 AM – 8:00 PM; Tuesday: 6:00 AM – 8:00 PM; Wednesday: 6:00 AM – 8:00 PM; Thursday: 6:00 AM – 8:00 PM; Friday: 6:00 AM – 7:00 PM; Saturday: 8:00 AM – 4:00 PM; Sunday: 8:00 AM – 4:00 PM,ChIJVYBT-nRBjoARkrHyC37y4xY,36.97730310000001,-122.0150124
Breath+Oneness Yoga,"708 Capitola Ave, Capitola, CA 95010, USA",(831) 515-7001,http://www.breathandoneness.com/,4.9,,establishment; gym; health; point_of_interest,Monday: 8:00 AM – 9:00 PM; Tuesday: 8:00 AM – 9:00 PM; Wednesday: 8:00 AM – 9:00 PM; Thursday: 8:00 AM – 9:00 PM; Friday: 8:00 AM – 9:00 PM; Saturday: 8:00 AM – 9:00 PM; Sunday: 8:00 AM – 9:00 PM,ChIJg44WynYVjoAR3TaBK6efe80,36.9793835,-121.9527062
Yoga Motive,"6996 Soquel Ave, Santa Cruz, CA 95062, USA",(206) 734-7424,,5,,establishment; gym; health; point_of_interest,Monday: 7:00 AM – 10:00 PM; Tuesday: 7:00 AM – 10:00 PM; Wednesday: 7:00 AM – 10:00 PM; Thursday: 7:00 AM – 10:00 PM; Friday: 7:00 AM – 10:00 PM; Saturday: 7:00 AM – 10:00 PM; Sunday: 7:00 AM – 10:00 PM,ChIJuTWck2EVjoAR1pZ8eGjq9MU,36.9818466,-121.968753
SPENGA Santa Cruz,"335 Soquel Ave, Santa Cruz, CA 95062, USA",(831) 227-2130,https://spenga.com/locations/santa-cruz/,4.8,,establishment; gym; health; point_of_interest,Monday: 5:30 AM – 7:30 PM; Tuesday: 5:30 AM – 7:30 PM; Wednesday: 5:30 AM – 7:30 PM; Thursday: 5:30 AM – 7:30 PM; Friday: 5:30 AM – 7:30 PM; Saturday: 5:30 AM – 7:30 PM; Sunday: 7:00 AM – 12:00 PM,ChIJya69wtZBjoARHorkArm_Ecs,36.9746514,-122.0199458
Toadal Fitness,"269 Mt Hermon Rd, Scotts Valley, CA 95066, USA",(831) 430-9200,https://www.toadalfitness.com/,4.4,,establishment; gym; health; point_of_interest,Monday: 6:00 AM – 8:00 PM; Tuesday: 6:00 AM – 8:00 PM; Wednesday: 6:00 AM – 8:00 PM; Thursday: 6:00 AM – 8:00 PM; Friday: 6:00 AM – 8:00 PM; Saturday: 8:00 AM – 4:00 PM; Sunday: 8:00 AM – 4:00 PM,ChIJNeBBDCtHjoARcKZfPA73arM,37.0475417,-122.0338278
Club Pilates,"23 Rancho Del Mar, Aptos, CA 95003, USA",(831) 435-9064,http://www.clubpilates.com/location/aptos/?utm_source=google.com&utm_medium=referral&utm_campaign=yext,4.8,,establishment; gym; health; point_of_interest,Monday: 9:00 AM – 5:00 PM; Tuesday: 9:00 AM – 5:00 PM; Wednesday: 9:00 AM – 5:00 PM; Thursday: 9:00 AM – 5:00 PM; Friday: 9:00 AM – 5:00 PM; Saturday: 9:00 AM – 5:00 PM; Sunday: 9:00 AM – 5:00 PM,ChIJTR0HpnoVjoARRyYRPSy80sQ,36.9779637,-121.908053
Club Pilates,"1010 Center St, Santa Cruz, CA 95060, USA",(831) 420-8001,http://clubpilates.com/santacruz/?utm_source=google.com&utm_medium=referral&utm_campaign=yext,4.9,,establishment; gym; health; point_of_interest,"Monday: 7:00 AM – 1:00 PM, 4:00 – 8:00 PM; Tuesday: 7:00 AM – 1:00 PM, 4:00 – 8:00 PM; Wednesday: 7:00 AM – 1:00 PM, 4:00 – 8:00 PM; Thursday: 7:00 AM – 1:00 PM, 4:00 – 8:00 PM; Friday: 7:00 AM – 1:00 PM, 4:00 – 8:00 PM; Saturday: 7:30 AM – 1:00 PM; Sunday: 8:00 AM – 2:00 PM",ChIJwXVuMrRBjoAR2uK9625lcHg,36.9758391,-122.0286086
Ayelet Pilates,"783 Rio Del Mar Blvd Suite 53, Aptos, CA 95003, USA",(831) 275-9595,http://ayeletpilates.com/,5,,establishment; gym; health; point_of_interest,Monday: 7:00 AM – 7:00 PM; Tuesday: 7:00 AM – 7:00 PM; Wednesday: 7:00 AM – 7:00 PM; Thursday: 7:00 AM – 7:00 PM; Friday: 7:00 AM – 4:00 PM; Saturday: 7:00 AM – 1:00 AM; Sunday: 7:00 AM – 1:00 PM,ChIJr3rQFw4XjoARrYsxTnF13ac,36.974601,-121.8895866
Monarch Pilates,"4125 Portola Dr, Santa Cruz, CA 95062, USA",(831) 475-8994,http://www.monarchpilates.com/,5,,establishment; gym; health; physiotherapist; point_of_interest,Monday: 8:30 AM – 7:30 PM; Tuesday: 6:30 AM – 6:30 PM; Wednesday: 6:30 AM – 6:30 PM; Thursday: 6:30 AM – 5:30 PM; Friday: 7:30 AM – 12:30 PM; Saturday: 8:30 AM – 12:30 PM; Sunday: 8:30 AM – 12:30 PM,ChIJoyuLS9cVjoARm7KQkQ02I8I,36.96398180000001,-121.9644836
Joy of Movement Gyrotonic and Pilates Studio,"8035 Soquel Dr #31, Aptos, CA 95003, USA",(831) 247-5488,http://www.joyofmovement.biz/,4.9,,establishment; gym; health; point_of_interest,Monday: 8:00 AM – 6:30 PM; Tuesday: 8:00 AM – 7:00 PM; Wednesday: 8:00 AM – 6:00 PM; Thursday: 8:00 AM – 7:00 PM; Friday: 8:00 AM – 6:00 PM; Saturday: 8:00 AM – 6:00 PM; Sunday: 8:00 AM – 6:00 PM,ChIJJUNj4NcVjoARCeeBi_in-HA,36.9777324,-121.9021256
Hilltop Pilates- Pilates in Aptos,"Bonita Dr, Aptos, CA 95003, USA",(831) 325-3407,https://hilltoppilates.com/,5,,establishment; gym; health; point_of_interest,Monday: 9:00 AM – 5:00 PM; Tuesday: 9:00 AM – 3:00 PM; Wednesday: 9:00 AM – 6:00 PM; Thursday: 9:00 AM – 5:00 PM; Friday: 9:00 AM – 5:00 PM; Saturday: Closed; Sunday: Closed,ChIJs_f1aDkVjoARRjUfigjG6UU,36.9741696,-121.8869148
Pilates by Natalia,"6894A Soquel Ave, Santa Cruz, CA 95062, USA",(408) 660-6273,https://pilatesbynatalia.com/,5,,establishment; gym; health; point_of_interest,Monday: 8:00 AM – 7:30 PM; Tuesday: 6:00 AM – 7:30 PM; Wednesday: 8:00 AM – 7:30 PM; Thursday: Closed; Friday: 8:00 AM – 5:00 PM; Saturday: 8:00 AM – 12:00 PM; Sunday: Closed,ChIJ8bSb1v6WWqIRbHVtt9weC6c,36.9826735,-121.9699064
"Blessful Body Pilates with Ky Autumn Russell, MA Kinesiology","Online sessions, Santa Cruz, CA 95060, USA",(831) 471-5070,https://www.kyautumn.com/,5,,establishment; gym; health; point_of_interest; school,Monday: Closed; Tuesday: 9:00 AM – 2:00 PM; Wednesday: Closed; Thursday: Closed; Friday: Closed; Saturday: Closed; Sunday: Closed,ChIJOVqsBGR0Zo0R0JX3e888w1o,36.9761629,-122.0332071
Pleasure Point Pilates,"22602 E Cliff Dr, Santa Cruz, CA 95062, USA",(831) 818-9840,http://www.pleasurepointpilates.com/,5,,establishment; gym; health; point_of_interest,Monday: 7:00 AM – 6:30 PM; Tuesday: 7:00 AM – 6:30 PM; Wednesday: 7:00 AM – 6:30 PM; Thursday: 7:00 AM – 6:30 PM; Friday: 7:00 AM – 6:30 PM; Saturday: 8:00 – 11:30 AM; Sunday: Closed,ChIJYwGSbjoVjoAR8h5POxUitfM,36.95850799999999,-121.980641
Studio Emilio,"550 Water St Suite C-1, Santa Cruz, CA 95062, USA",(831) 227-5557,http://studioemiliosantacruz.com/,5,,establishment; gym; health; point_of_interest,Monday: Closed; Tuesday: 10:00 AM – 4:00 PM; Wednesday: 10:00 AM – 4:00 PM; Thursday: 10:00 AM – 4:00 PM; Friday: 10:00 AM – 4:00 PM; Saturday: 10:00 AM – 4:00 PM; Sunday: Closed,ChIJE1X_u6pBjoAR8UWdxjDGKjE,36.9792305,-122.017703
Truly Toned,"118 Younger Way, Santa Cruz, CA 95060, USA",(831) 247-7069,,5,,establishment; gym; health; point_of_interest,Monday: 9:00 AM – 5:00 PM; Tuesday: 9:00 AM – 5:00 PM; Wednesday: 9:00 AM – 5:00 PM; Thursday: 9:00 AM – 5:00 PM; Friday: 9:00 AM – 5:00 PM; Saturday: 9:00 AM – 5:00 PM; Sunday: 9:00 AM – 5:00 PM,ChIJxQk06JtqjoAR7ih7BbWuR3U,36.9659341,-122.0220917
Bali Body Pilates,"303 Potrero St #41, Santa Cruz, CA 95060, USA",(415) 244-8326,https://www.balibodypilates.com/,5,,establishment; gym; health; point_of_interest,Monday: 9:00 AM – 4:00 PM; Tuesday: Closed; Wednesday: 9:00 AM – 4:00 PM; Thursday: Closed; Friday: 9:00 AM – 4:00 PM; Saturday: Closed; Sunday: Closed,ChIJnUP4I4tBjoAR8BpQhKidQ4M,36.9811068,-122.0306037
Toadal Fitness,"716 Ocean St, Santa Cruz, CA 95060, USA",(831) 423-3764,http://www.toadalfitness.com/,4.5,,establishment; gym; health; point_of_interest,Monday: 6:00 AM – 9:00 PM; Tuesday: 6:00 AM – 9:00 PM; Wednesday: 6:00 AM – 9:00 PM; Thursday: 6:00 AM – 9:00 PM; Friday: 6:00 AM – 7:00 PM; Saturday: 8:00 AM – 6:00 PM; Sunday: 8:00 AM – 6:00 PM,ChIJ3b9QfyhAjoAR09dTTVFEEbk,36.9787122,-122.0204486
KarliG Pilates,"9515 Soquel Dr #102, Aptos, CA 95003, USA",(415) 235-2515,https://karligpilates.com/,5,,establishment; gym; health; point_of_interest,Monday: 2:00 – 7:00 PM; Tuesday: 2:00 – 7:00 PM; Wednesday: 2:00 – 7:00 PM; Thursday: 2:00 – 7:00 PM; Friday: 2:00 – 7:00 PM; Saturday: Closed; Sunday: Closed,ChIJEXLYFcMXjoARRZp3b6w9pKM,36.9754854,-121.8845286
Santa Cruz CORE Fitness + Rehab,"317 Potrero St ste c, Santa Cruz, CA 95060, USA",(831) 425-9500,https://santacruzcore.com/,4.9,,establishment; gym; health; point_of_interest,Monday: 8:15 AM – 9:00 PM; Tuesday: 8:15 AM – 9:00 PM; Wednesday: 8:15 AM – 9:00 PM; Thursday: 8:15 AM – 9:00 PM; Friday: 8:15 AM – 9:00 PM; Saturday: 8:30 AM – 5:00 PM; Sunday: 8:30 AM – 5:00 PM,ChIJ8Y6oADFAjoARDcYGkf4rkF4,36.9821074,-122.0299772
Enterprise Sports Club,"100 Enterprise Way G100, Scotts Valley, CA 95066, USA",(831) 920-0912,http://www.enterprisesportsclub.com/,4.5,,establishment; gym; health; point_of_interest,Monday: 5:30 AM – 9:00 PM; Tuesday: 5:30 AM – 9:00 PM; Wednesday: 5:30 AM – 9:00 PM; Thursday: 5:30 AM – 9:00 PM; Friday: 5:30 AM – 9:00 PM; Saturday: 7:00 AM – 8:00 PM; Sunday: 7:00 AM – 8:00 PM,ChIJif4QGfBHjoAROIXX1HcGviU,37.06373019999999,-121.9997373
"Rocky's Rehab, Fitness, and Conditioning","2001 40th Ave c, Capitola, CA 95010, USA",(831) 854-2130,https://rfcsantacruz.com/,4.8,,establishment; gym; health; point_of_interest; school,Monday: 6:00 AM – 7:00 PM; Tuesday: 6:00 AM – 7:00 PM; Wednesday: 6:00 AM – 1:00 PM; Thursday: 6:00 AM – 7:00 PM; Friday: 6:00 AM – 1:00 PM; Saturday: 8:00 AM – 12:00 PM; Sunday: Closed,ChIJ5_WlSxEVjoAR7hiO1Nh_qVA,36.9787075,-121.9665126
Santa Cruz Biomechanics,"1500 Graham Hill Rd Unit B, Santa Cruz, CA 95060, USA",,https://www.santacruzbiomechanics.com/,4.9,,establishment; gym; health; point_of_interest,Monday: 8:00 AM – 7:00 PM; Tuesday: 8:00 AM – 7:00 PM; Wednesday: 8:00 AM – 7:00 PM; Thursday: 8:00 AM – 7:00 PM; Friday: 8:00 AM – 7:00 PM; Saturday: 8:00 AM – 7:00 PM; Sunday: Closed,ChIJT2cgeoYVjoARfOEF-4KMXmk,37.0143911,-122.0338023
The Center For Healing,"6144 Hwy 9, Felton, CA 95018, USA",(831) 332-0760,http://www.thecenterforhealing.net/,4.3,,establishment; gym; health; point_of_interest,Monday: 9:00 AM – 8:00 PM; Tuesday: 9:00 AM – 7:30 PM; Wednesday: 9:00 AM – 7:30 PM; Thursday: 9:00 AM – 7:30 PM; Friday: 9:00 AM – 7:00 PM; Saturday: 9:00 AM – 3:00 PM; Sunday: Closed,ChIJ-w_QJ6NGjoARF0TDIqswgZg,37.0503605,-122.073027
Green Magic Yoga,"738 Chestnut St, Santa Cruz, CA 95060, USA",(415) 545-8484,http://www.greenmagicyoga.com/,5,,establishment; gym; health; point_of_interest,,ChIJK-5kgtVBjoARwJn-Uf_sO7g,36.9760365,-122.0293825
"Mountain Sangha Yoga, Pilates, and Dance","12788 CA-9 #1, Boulder Creek, CA 95006, USA",(831) 217-3018,https://www.mountainsangha.com/contact,5,,establishment; gym; health; point_of_interest,Monday: 6:00 AM – 7:00 PM; Tuesday: 6:00 AM – 7:00 PM; Wednesday: 8:00 AM – 7:00 PM; Thursday: 6:00 AM – 7:00 PM; Friday: 6:00 AM – 7:00 PM; Saturday: 8:00 AM – 1:00 PM; Sunday: 8:00 AM – 5:00 PM,ChIJD7MVzA1PjoARiAhgQiD0G44,37.1197962,-122.1203848
West Cliff Yoga,"1010 Fair Ave, Santa Cruz, CA 95060, USA",(408) 348-1915,https://westcliffyoga.com/,5,,establishment; gym; health; point_of_interest,Monday: 8:00 AM – 8:00 PM; Tuesday: 8:00 AM – 8:00 PM; Wednesday: 8:00 AM – 8:00 PM; Thursday: 8:00 AM – 8:00 PM; Friday: 8:00 AM – 8:00 PM; Saturday: 8:00 AM – 6:00 PM; Sunday: 8:00 AM – 6:00 PM,ChIJ8R6Ue75rjoARhpYV2a_J1YM,36.9589098,-122.0452916
MADabolic Scotts Valley,"262 Mt Hermon Rd Suite #101, Scotts Valley, CA 95066, USA",(831) 202-5234,https://madabolic.com/location/scotts-valley,4.9,,establishment; gym; health; point_of_interest,Monday: 5:00 AM – 5:30 PM; Tuesday: 5:00 AM – 6:30 PM; Wednesday: 5:00 AM – 6:30 PM; Thursday: 5:00 AM – 6:30 PM; Friday: 5:00 AM – 6:00 PM; Saturday: 7:30 – 10:30 AM; Sunday: 7:30 – 10:30 AM,ChIJ7WwYM4VHjoARs1gjtmo5Vgg,37.04797,-122.0305763
Heartwood Yoga,"9573 CA-9, Ben Lomond, CA 95005, USA",(831) 289-3016,http://www.heartwoodyogasc.com/,5,,establishment; gym; health; point_of_interest,Monday: 9:30 AM – 7:30 PM; Tuesday: 5:30 AM – 7:30 PM; Wednesday: 9:30 AM – 8:30 PM; Thursday: 5:30 AM – 6:00 PM; Friday: 8:30 AM – 7:30 PM; Saturday: 7:30 AM – 6:30 PM; Sunday: 7:30 AM – 6:30 PM,ChIJ7_1PM7FFjoARS8D_ZEgQ0GY,37.0892415,-122.0917717
Rise Collective,"816 Bay Ave D, Capitola, CA 95010, USA",(831) 999-0120,https://www.risesantacruz.com/,5,,establishment; gym; health; point_of_interest,Monday: 6:00 AM – 9:00 PM; Tuesday: 6:00 AM – 9:00 PM; Wednesday: 6:00 AM – 9:00 PM; Thursday: 6:00 AM – 9:00 PM; Friday: 6:00 AM – 8:00 PM; Saturday: 7:00 AM – 8:00 PM; Sunday: 7:00 AM – 8:00 PM,ChIJf2E-_4AVjoARtumTV4oZjg4,36.9813507,-121.9544528
Anytime Fitness,"1640 Mission St, Santa Cruz, CA 95060, USA",(831) 777-3999,https://www.anytimefitness.com/locations/santa-cruz-california-4906/?utm_source=google&utm_medium=organic-businesslisting&utm_campaign=gbp-listing&utm_content=4906,4.9,,establishment; gym; health; point_of_interest,Monday: Open 24 hours; Tuesday: Open 24 hours; Wednesday: Open 24 hours; Thursday: Open 24 hours; Friday: Open 24 hours; Saturday: Open 24 hours; Sunday: Open 24 hours,ChIJt1oNi45rjoARHApXBTiSH_Y,36.9658342,-122.0413181
Athletics & Recreation Fitness Center,"405 E Field Service Rd, Santa Cruz, CA 95064, USA",(831) 459-2995,http://www.goslugs.com/,3.8,,establishment; gym; health; point_of_interest,Monday: 6:00 AM – 11:00 PM; Tuesday: 6:00 AM – 11:00 PM; Wednesday: 6:00 AM – 11:00 PM; Thursday: 6:00 AM – 11:00 PM; Friday: 6:00 AM – 11:00 PM; Saturday: 8:00 AM – 8:00 PM; Sunday: 8:00 AM – 8:00 PM,ChIJVRW6fKRBjoARlWkP543vP7g,36.9936176,-122.0546745
Cabrillo College Gym,"Aptos, CA 95003, USA",,https://www.cabrillo.edu/wellness-education-center/,5,,establishment; gym; health; point_of_interest,,ChIJ4VsiPgAVjoARAfzJiheYeiE,36.9875358,-121.9246274
Restructure Studio,"1804 Mission St STE 102, Santa Cruz, CA 95060, USA",,,4.7,,establishment; gym; health; point_of_interest,Monday: 9:00 AM – 3:00 PM; Tuesday: 9:00 AM – 3:00 PM; Wednesday: 9:00 AM – 3:00 PM; Thursday: 9:00 AM – 3:00 PM; Friday: 9:00 AM – 3:00 PM; Saturday: Closed; Sunday: Closed,ChIJqcIqCTZrjoARw66hhgPq5T8,36.9641601,-122.0426605
Fit Together Studio,"1001 Center St Ste 9, Santa Cruz, CA 95060, USA",(831) 424-1814,https://www.fittogetherstudio.com/,5,,establishment; gym; health; point_of_interest,,ChIJ5-nerxdBjoAR_iBqgM-PsJ8,36.9759192,-122.0288487
Athletics & Recreation Activities Room,"Santa Cruz, CA 95064, USA",,http://opers.ucsc.edu/,4.5,,establishment; gym; health; point_of_interest,Monday: 6:00 AM – 11:00 PM; Tuesday: 6:00 AM – 11:00 PM; Wednesday: 6:00 AM – 11:00 PM; Thursday: 6:00 AM – 11:00 PM; Friday: 6:00 AM – 10:00 PM; Saturday: 8:00 AM – 8:00 PM; Sunday: 8:00 AM – 8:00 PM,ChIJmXcJdKRBjoARxj5mwIBfI1U,36.9943153,-122.055041
OPERS Multipurpose Room,"1156 High St, Santa Cruz, CA 95064, USA",(831) 459-3051,http://fitlife.ucsc.edu/,3.9,,establishment; gym; health; point_of_interest,Monday: 7:00 AM – 7:00 PM; Tuesday: 7:00 AM – 7:00 PM; Wednesday: 7:00 AM – 7:00 PM; Thursday: 7:00 AM – 7:00 PM; Friday: 7:00 AM – 7:00 PM; Saturday: 10:00 AM – 6:00 PM; Sunday: 10:00 AM – 6:00 PM,ChIJJc1feqRBjoARXOz7Dw_aVVk,36.9938132,-122.0548194
Anytime Fitness,"90 Rancho Del Mar, Aptos, CA 95003, USA",(831) 662-1977,https://www.anytimefitness.com/locations/aptos-california-4649/?utm_source=google&utm_medium=organic-businesslisting&utm_campaign=gbp-listing&utm_content=4649,4.8,,establishment; gym; health; point_of_interest,Monday: Open 24 hours; Tuesday: Open 24 hours; Wednesday: Open 24 hours; Thursday: Open 24 hours; Friday: Open 24 hours; Saturday: Open 24 hours; Sunday: Open 24 hours,ChIJ4xriCH8VjoARAwbego6rW3o,36.9770603,-121.9071149
LOLA'S,"4061 Soquel Dr A2, Soquel, CA 95073, USA",(831) 889-9277,https://lolasfitness.com/,4.8,,establishment; gym; health; point_of_interest,Monday: Open 24 hours; Tuesday: Open 24 hours; Wednesday: Open 24 hours; Thursday: Open 24 hours; Friday: Open 24 hours; Saturday: Open 24 hours; Sunday: Open 24 hours,ChIJecKyl4cVjoARfJoqtJW3iJI,36.9879048,-121.9654044
Scotts Valley Gym,"105 Whispering Pines Dr, Scotts Valley, CA 95066, USA",(831) 332-5555,http://scottsvalleygym.com/,4.2,,establishment; gym; health; point_of_interest,Monday: Open 24 hours; Tuesday: Open 24 hours; Wednesday: Open 24 hours; Thursday: Open 24 hours; Friday: Open 24 hours; Saturday: Open 24 hours; Sunday: Open 24 hours,ChIJHT2YFM5AjoARdCR3Gq8TH94,37.0421501,-122.0258714
Seascape Village Fitness,"16 Seascape Village, Aptos, CA 95003, USA",(831) 708-2323,http://www.seascapevillagefitness.com/,4.5,,establishment; gym; health; point_of_interest,"Monday: 6:00 AM – 12:00 PM, 3:00 – 7:00 PM; Tuesday: 6:00 AM – 12:00 PM, 3:00 – 7:00 PM; Wednesday: 6:00 AM – 12:00 PM, 3:00 – 7:00 PM; Thursday: 6:00 AM – 12:00 PM, 3:00 – 7:00 PM; Friday: 6:00 AM – 12:00 PM; Saturday: 8:00 AM – 12:00 PM; Sunday: Closed",ChIJyxirrcAWjoARVCwyir-DvNQ,36.952708,-121.8771516
Nightmare Muscle Santa Cruz,"151 Harvey West Blvd STE D, Santa Cruz, CA 95060, USA",(408) 337-6709,https://www.nightmaremuscle.com/location/santa-cruz-ca,4.9,,establishment; gym; health; point_of_interest,Monday: Open 24 hours; Tuesday: Open 24 hours; Wednesday: Open 24 hours; Thursday: Open 24 hours; Friday: Open 24 hours; Saturday: Open 24 hours; Sunday: Open 24 hours,ChIJP9aFcjRAjoARSPw08ns0c04,36.9829945,-122.0343649
SCG Fitness,"2351 Mission St, Santa Cruz, CA 95060, USA",(831) 600-7117,https://scgfitness.org/,5,,establishment; gym; health; point_of_interest,Monday: 6:00 AM – 7:00 PM; Tuesday: 6:00 AM – 7:00 PM; Wednesday: 6:00 AM – 7:00 PM; Thursday: 6:00 AM – 7:00 PM; Friday: 6:00 AM – 3:00 PM; Saturday: 8:00 AM – 1:00 PM; Sunday: 8:00 AM – 1:00 PM,ChIJDQGBWGhrjoARwWdFhn6LJMM,36.96063,-122.0478949
SCM Community Fitness,"6500 CA-9, Felton, CA 95018, USA",(831) 334-0264,http://www.scmcf831.com/,5,,establishment; gym; health; point_of_interest,Monday: 6:00 AM – 6:30 PM; Tuesday: 6:00 AM – 6:30 PM; Wednesday: 6:00 AM – 6:30 PM; Thursday: 6:00 AM – 6:30 PM; Friday: 6:00 AM – 6:30 PM; Saturday: 9:00 – 11:00 AM; Sunday: Closed,ChIJcSGLpJlGjoAR_RpheYJro4U,37.0557175,-122.074681
The Movement Lab,"16 Victor Square Ext STE F, Scotts Valley, CA 95066, USA",(831) 777-5267,https://themovementlabsv.com/,5,,establishment; gym; health; physiotherapist; point_of_interest,Monday: 7:00 AM – 6:30 PM; Tuesday: 7:00 AM – 6:30 PM; Wednesday: 7:00 AM – 6:30 PM; Thursday: 7:00 AM – 6:30 PM; Friday: 7:00 AM – 7:00 PM; Saturday: 8:00 – 11:00 AM; Sunday: Closed,ChIJX3t9pz_9S00RdXZ2NfKyQJ4,37.0609093,-122.0062597